region_id,region_name,lat,lon,multiplier
1,Cairo,30.0444,31.2357,1.1
2,Alexandria,31.2001,29.9187,0.95
3,Marsa Matruh,31.3543,27.2373,0.9
4,Port Said,31.2653,32.3019,1.05
5,Sharm El Sheikh,27.9158,34.3299,1.2
6,Aswan,24.0889,32.8998,0.85
